{"101": {"pred": {"city": "Nakhon Ratchasima, Thailand", "latitude": "14.9799", "longitude": "102.0977"}, "distance": 256.19}, "102": {"pred": {"city": "Bengaluru, Karnataka, India", "latitude": "13.0285", "longitude": "77.5150"}, "distance": 30.45}, "103": {"pred": {"city": "Paris, France", "latitude": "48.814349", "longitude": "1.90384"}, "distance": 409.3}, "104": {"pred": {"city": "Manchester, England, UK", "latitude": "53.4808", "longitude": "-2.2426"}, "distance": 0.16}, "105": {"pred": {"city": "Edmonton, AB, Canada", "latitude": "53.5461", "longitude": "-113.4938"}, "distance": 3.78}, "106": {"pred": {"city": "Zaragoza, Spain", "latitude": "41.6488", "longitude": "-0.8891"}, "distance": 7.57}, "107": {"pred": {"city": "Vienna, Austria", "latitude": "48.2082", "longitude": "16.3738"}, "distance": 156.04}, "108": {"pred": {"city": "Bodrum, Yalikavak, Turkey", "latitude": "37.1040", "longitude": "27.2986"}, "distance": 4.15}, "109": {"pred": {"city": "Recife, PE, Brazil", "latitude": "-8.047562", "longitude": "-34.877001"}, "distance": 19.13}, "110": {"pred": {"city": "Gerasdorf bei Wien, Austria", "latitude": "48.3075", "longitude": "16.4672"}, "distance": 21.69}, "201": {"pred": {"city": "Portland, OR, USA", "latitude": "45.523064", "longitude": "-122.676483"}, "distance": 2.9}, "202": {"pred": {"city": "Vilnius, Lithuania", "latitude": "54.6872", "longitude": "25.2797"}, "distance": 86.0}, "203": {"pred": {"city": "Vereeniging, South Africa", "latitude": "-26.673611", "longitude": "27.931944"}, "distance": 70.51}, "205": {"pred": {"city": "Norfolk, MA, USA", "latitude": "42.1195", "longitude": "-71.3257"}, "distance": 604.11}, "206": {"pred": {"city": "Guayaramer\u00edn, Bolivia", "latitude": "-10.8206", "longitude": "-65.3614"}, "distance": 1482.48}, "207": {"pred": {"city": "Port Arthur, TX, USA", "latitude": "29.8987", "longitude": "-93.9288"}, "distance": 127.82}, "210": {"pred": {"city": "New Delhi, India", "latitude": "28.6139", "longitude": "77.2090"}, "distance": 5.24}}